Id,Station,longitude,latitude,Country
60419,CONSTANTINE,6.61666,36.28333,Algeria
60421,OUM-EL-BOUAGHI,7.11666,35.86666,Algeria
60423,SOUK-AHRAS,7.96666,36.28333,Algeria
60425,CHLEF,1.33333,36.21666,Algeria
60430,MILIANA,2.23333,36.3,Algeria
60437,MEDEA,2.73333,36.28333,Algeria
60444,BORDJ-BOU-ARRERIDJ,4.76666,36.06666,Algeria
60445,SETIF,5.25,36.18333,Algeria
60452,ARZEW,-0.26666,35.81666,Algeria
60457,MOSTAGANEM,0.11666,35.88333,Algeria
60461,ORAN-PORT,-0.65,35.7,Algeria
60467,M-SILA,4.5,35.66666,Algeria
60468,BATNA,6.31666,35.75,Algeria
60471,BARIKA,5.33333,35.33333,Algeria
60475,TEBESSA,8.11666,35.41666,Algeria
60476,KHENCHELLA,7.08333,35.46666,Algeria
60481,ORAN-TAFARAOUI,-0.51666,35.48333,Algeria
60490,ORAN-SENIA,-0.6,35.63333,Algeria
60506,MASCARA-MATEMORE,0.3,35.6,Algeria
60507,MASCARA-GHRISS,0.15,35.21666,Algeria
60511,TIARET,1.46666,35.35,Algeria
60514,KSAR-CHELLALA,2.31666,35.16666,Algeria
60515,BOU-SAADA,4.2,35.33333,Algeria
60517,GHAZAOUET,-1.86666,35.1,Algeria
60518,BENI-SAF,-1.35,35.3,Algeria
60520,SIDI-BEL-ABBES,-0.61666,35.2,Algeria
60522,MAGHNIA,-1.78333,34.81666,Algeria
60525,BISKRA,5.73333,34.8,Algeria
60531,TLEMCEN-ZENATA,-1.46666,35.01666,Algeria
60535,DJELFA,3.38333,34.33333,Algeria
60536,SAIDA,0.15,34.86666,Algeria
60611,IN-AMENAS,9.63333,28.05,Algeria
60607,TIMIMOUN,0.28333,29.25,Algeria
60603,RHOURD-NOUSS,6.7,29.71666,Algeria
60602,BENI-ABBES,-2.16666,30.13333,Algeria
60590,EL-GOLEA,2.86666,30.56666,Algeria
60581,HASSI-MESSAOUD,6.15,31.66666,Algeria
60580,OUARGLA,5.4,31.93333,Algeria
60571,BECHAR,-2.25,31.5,Algeria
60566,GHARDAIA,3.8,32.4,Algeria
60563,HASSIR_MEL,3.28333,32.93333,Algeria
60560,AIN-SEFRA,-0.6,32.76666,Algeria
60670,DJANET,9.46666,24.26666,Algeria
60690,IN-GUEZZAM,5.76666,19.56666,Algeria
60686,BORDJ-BADJ-MOKHTAR,0.95,21.33333,Algeria
60656,TINDOUF,-8.16666,27.7,Algeria
60640,ILLIZI,8.41666,26.5,Algeria
60630,IN-SALAH,2.5,27.23333,Algeria
60559,EL-OUED,6.78333,33.5,Algeria
60680,TAMANRASSET,5.43333,22.8,Algeria
60620,ADRAR,-0.18333,27.88333,Algeria
60557,NAAMA,-0.3,33.26666,Algeria
60555,TOUGGOURT,6.13333,33.11666,Algeria
60550,EL-BAYADH,1,33.66666,Algeria
60549,MECHERIA,-0.28333,33.58333,Algeria
60545,LAGHOUAT,2.93333,33.76666,Algeria
60540,EL-KHEITER,6.66666,34.15,Algeria
60351,JIJEL--ACHOUAT,5.88333,36.8,Algeria
60353,JIJEL-PORT,5.88333,36.81666,Algeria
60355,SKIKDA,6.9,36.88333,Algeria
60360,ANNABA,7.81666,36.83333,Algeria
60367,EL-KALA,8.45,36.9,Algeria
60369,ALGER-PORT,3.1,36.76666,Algeria
60387,DELLYS,3.95,36.91666,Algeria
60390,DAR-EL-BEIDA,3.21666,36.68333,Algeria
60395,TIZI-OUZOU,4.05,36.7,Algeria
60401,BEJAIA-PORT,5.1,36.75,Algeria
60402,BEJAIA-AEROPORT,5.06666,36.71666,Algeria
60403,GUELMA,7.46666,36.46666,Algeria
60405,BOUCHEGOUF,7.71666,36.5,Algeria
60410,TENES,1.33333,36.5,Algeria
60415,AIN-BESSAM,3.53333,36.31666,Algeria
60417,BOUIRA,3.88333,36.38333,Algeria
66450,BAIA-DOS-TIGRES,11.71666,-16.6,Angola
66305,LOBITO,13.53333,-12.36666,Angola
66296,CAZOMBO,22.9,-11.86666,Angola
66285,LUENA-LUSO,19.91666,-11.78333,Angola
66270,WAKU-KUNGU-CELA,15.11666,-11.41666,Angola
66260,SUMBE,13.85,-11.2,Angola
66240,PORTO-AMBOIM,13.75,-10.7,Angola
66226,SAURIMO-HENRIQUE-DE-CARVALHO,20.4,-9.65,Angola
66223,MBANZA-CONGO,14.25,-6.26666,Angola
66215,MALANGE,16.36666,-9.55,Angola
66210,SUMBE,13.85,-11.2,Angola
66187,CAMAXILO,18.93333,-8.36666,Angola
66172,N_DALATANDO,14.91666,-9.28333,Angola
66160,LUANDA,13.23333,-8.85,Angola
66152,DUNDO,20.81666,-7.4,Angola
66142,NEGAGE,15.36666,-7.68333,Angola
66140,CARMONA,15,-7.58333,Angola
66136,TOTO,14.26666,-7.16666,Angola
66130,N_ZETO-AMBRIZETE,12.86666,-7.23333,Angola
66121,MAQUELA-DO-ZOMBO,15.11666,-6.03333,Angola
66118,NBANZA-KONGO,14.25,-6.26666,Angola
66116,NOQUI,13.43333,-5.86666,Angola
66104,CABINDA,12.18333,-5.55,Angola
66318,HUAMBO-NOVA-LISBOA,15.75,-12.8,Angola
66325,BIE-SILVA-PORTO,16.95,-12.38333,Angola
66390,LUBANGO-SA-DA-BANDEIRA,13.56666,-14.93333,Angola
66410,MENONGUE-SERPA-PINTO,17.68333,-14.65,Angola
66422,MOCAMEDES,12.15,-15.2,Angola
66447,MAVINGA,20.35,-15.83333,Angola
66460,PEREIRA-DE-ECA,15.73333,-17.08333,Angola
66485,ROCADAS,15,-16.71666,Angola
66310,MONBACA-BENGUELA,13.41666,-12.58333,Angola
65330,PARAKOU,2.61666,9.35,Benin
65319,NATITINGOU,1.38333,10.31666,Benin
65344,COTONOU,2.38333,6.35,Benin
65338,BOHICON,2.06666,7.16666,Benin
65335,SAVE,2.46666,8.03333,Benin
65306,KANDI,2.93333,11.13333,Benin
68024,GHANZI,21.65,-21.7,Botswana
68038,SUA-PAN,26.21666,-20.55,Botswana
68032,MAUN,23.41666,-19.98333,Botswana
68031,MOREMI,23.41666,-19.33333,Botswana
68030,PANDAMATENGA,25.63333,-18.53333,Botswana
68029,KASANE,25.15,-17.81666,Botswana
68026,SHAKAWE,21.85,-18.36666,Botswana
68226,TSHANE,21.88333,-24.01666,Botswana
68234,JWANENG,24.66666,-24.6,Botswana
68240,SERETSE-KHAMA-INTERNATIONAL-AIRPORT,25.91666,-24.55,Botswana
68244,GABORONE,25.91666,-24.66666,Botswana
68320,WERDA,23.25,-25.26666,Botswana
68325,GOOD-HOPE,25.41666,-25.45,Botswana
68328,TSABONG,22.45,-26.05,Botswana
68148,MAHALAPYE,26.8,-23.08333,Botswana
68220,KHUTSE,24.16666,-23.66666,Botswana
68070,SELEBI-PHIKWE,27.81666,-22.05,Botswana
68054,FRANCISTOWN,27.5,-21.21666,Botswana
68040,LETLHAKANE,25.6,-21.41666,Botswana
68034,GWETA,25.08333,-20.25,Botswana
68992,BOUVET-ISLAND,3.28333,-54.4,Bouvet-Island
65522,GAOUA,-3.18333,10.33333,Burkina
65523,MANGODARA,-4.35,9.9,Burkina
65516,BOROMO,-2.91666,11.73333,Burkina
65503,OUAGADOUGOU,-1.51666,12.35,Burkina
65510,BOBO-DIOULASSO,-4.3,11.16666,Burkina
65518,PO,-1.15,11.16666,Burkina
65501,DORI,-3.33333,14.03333,Burkina
65502,OUAHIGOUYA,-2.43333,13.58333,Burkina
65507,FADA-N_GOURMA,0.35,12.06666,Burkina
65505,DEDOUGOU,-3.48333,12.46666,Burkina
65500,MARKOYE,-6.66666,14.63333,Burkina
64397,MUYINGA,30.33333,-2.83333,Burundi
64390,BUJUMBURA,29.31666,-3.31666,Burundi
64910,DOUALA-OBS,9.73333,4,Cameroon
64971,KRIBI,9.9,2.95,Cameroon
64961,LOMIE,13.61666,3.15,Cameroon
64960,ABONG-MBANG,13.2,3.96666,Cameroon
64950,YAOUNDE,11.51666,3.83333,Cameroon
64931,BATOURI,14.36666,4.46666,Cameroon
64930,BERTOUA,13.73333,4.6,Cameroon
64920,BAFIA,11.25,4.73333,Cameroon
64911,NKONGSAMBA,9.93333,4.95,Cameroon
64910,DOUALA-OBS,9.7,4.01666,Cameroon
64901,BETARE-OYA,14.06666,5.6,Cameroon
64900,YOKO,12.36666,5.55,Cameroon
64893,KOUNDJA,10.75,5.65,Cameroon
64892,BAMENDA,10.11666,6.05,Cameroon
64890,MAMFE,9.28333,5.71666,Cameroon
64882,MEIGANGA,14.36666,6.53333,Cameroon
64880,BANYO,11.81666,6.78333,Cameroon
64870,NGAOUNDERE,13.56666,7.35,Cameroon
64860,GAROUA,13.38333,9.33333,Cameroon
64851,MAROUA-SALAK,14.25,10.45,Cameroon
64665,MOBAYE,21.18333,4.31666,Centrafrique
64662,ALINDAO,21.2,5.05,Centrafrique
64661,YALINGA,23.26666,6.5,Centrafrique
64660,BAMBARI,20.65,5.85,Centrafrique
64659,OBO,26.5,5.4,Centrafrique
64658,BIRAO,22.78333,10.28333,Centrafrique
64656,BANGASSOU,22.83333,4.73333,Centrafrique
64655,BRIA,21.98333,6.53333,Centrafrique
64654,N_DELE,20.65,8.4,Centrafrique
64650,BANGUI,18.51666,4.4,Centrafrique
64610,BOSSANGOA,17.43333,6.48333,Centrafrique
64605,BOSSEMBELE,17.63333,5.26666,Centrafrique
64601,BOUAR,15.63333,5.96666,Centrafrique
64600,BERBERATI,15.8,4.25,Centrafrique
64756,ABECHE,20.85,13.85,Chad
64755,GOZ-BEIDA,21.41666,12.23333,Chad
64754,AM-TIMAN,20.28333,11.03333,Chad
64753,FAYA,19.16666,18,Chad
64751,ATI,18.31666,13.21666,Chad
64750,SARH,18.38333,9.15,Chad
64709,PALA,14.96666,9.36666,Chad
64708,BOKORO,17.05,12.38333,Chad
64707,MOUSSORO,16.5,13.65,Chad
64706,MOUNDOU,16.06666,8.56666,Chad
64705,BOUSSO,16.71666,10.48333,Chad
64702,BOL-BERIM,14.73333,13.43333,Chad
64701,MAO,15.31666,14.11666,Chad
64700,NDJAMENA,15.03333,12.13333,Chad
64757,FADA,21.55,17.16666,Chad
64758,MONGO,18.68333,12.18333,Chad
67005,PAMANDZI-MAYOTTE,45.26666,-12.8,Comoros
67001,MORONI-AIRPORT-GRANDE-COMORE,43.23333,-11.7,Comoros
67004,OUANI-ANJOUAN,44.43333,-12.11666,Comoros
67002,HAHAYA-INT-AIRPORT,43.26666,-11.53333,Comoros
64405,SIBITI,13.35,-3.68333,Congo
64400,POINTE-NOIRE,11.9,-4.81666,Congo
64401,DOLISIE,12.7,-4.2,Congo
64402,MOUYONDZI,13.95,-4,Congo
64403,MAKABANA,12.61666,-3.48333,Congo
64450,BRAZZAVILLE-_MAYA-MAYA,15.25,-4.25,Congo
64451,BOULANKIO,15.25,-3.81666,Congo
64452,M_POUYA,16.21666,-2.61666,Congo
64453,DJAMBALA,14.76666,-2.53333,Congo
64454,GAMBOMA,15.85,-1.9,Congo
64456,MAKOUA,15.65,-1.66666,Congo
64458,OUESSO,16.05,1.61666,Congo
64459,IMPFONDO,18.06666,1.61666,Congo
64460,SOUANKE,14.03333,2.06666,Congo
64462,KELLE,13.55,0.1,Congo
64463,EWO,14.81666,-5.58333,Congo
65562,DIMBOKRO,-4.7,6.65,CotedIvoire
65560,DALOA,-6.46666,6.86666,CotedIvoire
65557,GAGNOA,-5.95,6.13333,CotedIvoire
65555,BOUAKE,-5.06666,7.73333,CotedIvoire
65548,MAN,-7.51666,7.38333,CotedIvoire
65545,BONDOUKOU,-2.78333,8.05,CotedIvoire
65536,KORHOGO,-5.61666,9.41666,CotedIvoire
65528,ODIENNE,-7.56666,9.5,CotedIvoire
65594,SAN-PEDRO,-6.65,4.75,CotedIvoire
65592,TABOU,-7.36666,4.41666,CotedIvoire
65585,ADIAKE,-3.3,5.3,CotedIvoire
65578,ABIDJAN,-3.93333,5.25,CotedIvoire
65563,YAMOUSSOUKRO,-5.35,6.9,CotedIvoire
65599,SASSANDRA,-6.08333,4.95,CotedIvoire
64108,BANDUNDU,17.35,-3.3,DRC
64014,LISALA,21.56666,2.31666,DRC
64008,BASANKUSU,19.8,1.21666,DRC
64006,GEMENA,19.78333,3.28333,DRC
64115,INONGO,18.26666,-1.96666,DRC
64126,BOENDE,20.85,-0.21666,DRC
64146,LODJA,23.46666,-3.48333,DRC
64155,KINDU,25.91666,-2.95,DRC
64005,MBANDAKA,18.26666,0.05,DRC
64156,KALIMA,26.55,-2.6,DRC
64157,RUTSHURU,29.45,-1.18333,DRC
64159,UBUNDU,25.45,-0.35,DRC
64170,WALIKALE,27,-1.41666,DRC
64180,BUKAVU,28.85,-2.51666,DRC
64184,GOMA,29.23333,-1.68333,DRC
64201,MOANDA,12.41666,-6,DRC
64203,KITONA,12.45,-5.91666,DRC
64204,BOMA,13.1,-5.85,DRC
64206,INGA,13.58333,-5.51666,DRC
64207,MATADI,13.43333,-5.8,DRC
64209,LUOZI,14.13333,-4.95,DRC
64210,KINSHASA_N_DJILI,15.43333,-4.38333,DRC
64211,KINSHASA_N_DOLO,15.31666,-4.31666,DRC
64370,LUBUMBASHI-KARAVIA,27.46666,-11.65,DRC
64021,BONDO,23.81666,3.8,DRC
64034,BUTA,24.78333,2.78333,DRC
64040,KISANGANI,25.18333,0.51666,DRC
64056,BAFWASENDE,27.13333,1.08333,DRC
64016,BUMBA,22.55,2.18333,DRC
64015,LIBENGE,18.63333,3.63333,DRC
64062,ISIRO,27.65,2.76666,DRC
64071,MAMBASA,29.06666,1.36666,DRC
64072,BUTEMBO,29.26666,0.13333,DRC
64074,WATSA,29.5,3.06666,DRC
64076,BUNIA,30.21666,1.5,DRC
64077,BUNIA-RUAMPARA,30.21666,1.56666,DRC
64101,LUKOLELA,17.2,-1.05,DRC
64360,LUBUMBASHI-LUANO,27.48333,-11.66666,DRC
64018,BASOKO,23.6,1.25,DRC
64217,KENGE,17.06666,-4.91666,DRC
64220,KINSHASA_BINZA,15.25,-4.36666,DRC
64222,KIKWIT,18.8,-5.03333,DRC
64224,ILEBO,20.58333,-4.33333,DRC
64228,TSHIKAPA,20.85,-6.41666,DRC
64235,KANANGA,22.41666,-5.88333,DRC
64246,LUSAMBO,23.43333,-4.96666,DRC
64247,MBUJI-MAYI,23.61666,-6.16666,DRC
64248,LUPUTA,23.73333,-7.13333,DRC
64264,KASONGO,26.58333,-4.51666,DRC
64276,KONGOLO,27,-5.35,DRC
64282,MANONO,27.43333,-7.28333,DRC
64285,KALEMIE,29.18333,-5.88333,DRC
64301,DILOLO,22.33333,-10.68333,DRC
64303,SANDOA,22.85,-9.63333,DRC
64315,KAMINA_BASE,25.25,-8.63333,DRC
64328,KOLWEZI,25.45,-10.71666,DRC
64348,MITWABA,27.33333,-8.6,DRC
63125,DJIBOUTI,43.15,11.55,Djibouti
63145,OBOLEH,42.71666,11.16666,Djibouti
62305,SALLUM-PLATEAU,25.11666,31.56666,Egypt
62301,SIDI-BARRANI,25.9,31.61666,Egypt
62306,MERSA-MATRUH,27.21666,31.31666,Egypt
62309,DABAA,28.43333,31.01666,Egypt
62318,NOUZHA,29.93333,31.16666,Egypt
62324,ROSETTA,30.36666,31.45,Egypt
62325,BALTIM,31.08333,31.55,Egypt
62330,DAMIETTA,31.81666,31.41666,Egypt
62332,PORT-SAID_EL-GAMIL,32.23333,31.26666,Egypt
62335,RAFAH-AGRIMET,34.2,31.2,Egypt
62336,EL-ARISH-AGRIMET,33.81666,31.08333,Egypt
62337,EL-ARISH,33.83333,31.06666,Egypt
62345,TAHRIR,30.7,30.65,Egypt
62357,WADI-EL-NATROON-AGRIMET,30.35,30.4,Egypt
62360,SHEBIN-EL-KOM,31.01666,30.6,Egypt
62366,CAIRO,31.4,30.1,Egypt
62369,BAHTIM-AGRIMET,31.25,30.13333,Egypt
62371,CAIRO-HQ,31.28333,30.08333,Egypt
62375,GIZA-AGRIMET,31.21666,30.05,Egypt
62378,HELWAN,31.33333,29.85,Egypt
62381,FAYOUM,30.85,29.3,Egypt
62387,MINYA,30.73333,28.08333,Egypt
62389,MALWY-AGRIMET,30.75,27.7,Egypt
62392,ASYUT-AGRIMET,31.16666,27.2,Egypt
62393,ASYUT,31,27.03333,Egypt
62397,MOUBARK,31.73333,26.33333,Egypt
62403,SOUTH-OF-VALLEY-UNIVERSITY,32.73333,26.2,Egypt
62405,LUXOR,32.7,25.66666,Egypt
62408,EDFOU,32.81666,24.98333,Egypt
62414,ASSWAN,32.81666,23.95,Egypt
62417,SIWA,25.48333,29.2,Egypt
62419,ABU-SIMBEL,31.6,22.36666,Egypt
62420,BAHARIA,28.9,28.33333,Egypt
62423,FARAFRA,27.98333,27.05,Egypt
62425,SHARK-EL-OUINAT,28.7,22.58333,Egypt
62432,DAKHLA,28.96666,25.5,Egypt
62435,KHARGA-AGRIMET,30.53333,25.45,Egypt
62440,ISMAILIA,32.23333,30.58333,Egypt
62450,EL-SUEZ,32.46666,29.86666,Egypt
62452,NEKHEL,33.73333,29.9,Egypt
62453,EL-HASANA,33.76666,30.45,Egypt
62454,BEAR-EL-ABD,32.75,30.96666,Egypt
62455,RAS-SEDR,32.71666,29.58333,Egypt
62456,TABA,34.76666,29.58333,Egypt
62457,SANT-KATREIN,34.05,28.68333,Egypt
62458,ABURDEES,33.18333,28.9,Egypt
62459,EL-TOR,33.63333,28.2,Egypt
62460,SHARM-EL-SHEIKH,34.38333,27.96666,Egypt
62463,HURGUADA,33.8,27.16666,Egypt
62464,HURGUADA-POLLUTION,33.73333,27.28333,Egypt
62465,KOSSEIR,34.25,26.13333,Egypt
62467,DAHAB,34.5,28.48333,Egypt
62476,SHALATIN,35.58333,23.11666,Egypt
64820,BATA-RIO-MUNI,9.8,1.9,GuineaE
64810,MALABO,8.76666,3.75,GuineaE
63043,ASSAB,42.71666,13.06666,Eritrea
63023,MASSAWA,39.45,15.61666,Eritrea
63021,ASMARA,38.91666,15.28333,Eritrea
63006,NACFA,38.33333,16.66666,Eritrea
63453,METEHARA,39.9,8.86666,Ethiopia
63451,HARAR-MEDA,38.95,8.73333,Ethiopia
63450,ADDIS-ABABA-BOLE,38.75,9.03333,Ethiopia
63403,GORE,35.53333,8.15,Ethiopia
63402,JIMMA,36.83333,7.66666,Ethiopia
63533,NEGHELLE,39.56666,5.33333,Ethiopia
63334,DEBREMARCOS,37.66666,10.33333,Ethiopia
63333,COMBOLCHA,39.73333,11.11666,Ethiopia
63332,BAHAR-DAR,37.41666,11.6,Ethiopia
63331,GONDAR,37.41666,12.55,Ethiopia
63330,MAKALE,39.48333,13.5,Ethiopia
63340,LEKEMTE,36.45,9.08333,Ethiopia
63478,GODE,43.58333,5.9,Ethiopia
63474,ROBE_BALE,40,7.13333,Ethiopia
63471,DIREDAWA,41.85,9.6,Ethiopia
63460,AWASSA,38.48333,7.08333,Ethiopia
63500,ARBA-MINCH,37.63333,6.08333,Ethiopia
64510,BITAM,11.48333,2.08333,Gabon
64570,MVENGUE,13.43333,-1.65,Gabon
64556,MAKOKOU,12.86666,0.56666,Gabon
64552,MITZIC,11.53333,0.78333,Gabon
64551,LAMBARENE,10.23333,-0.71666,Gabon
64512,OYEM,11.56666,1.58333,Gabon
64507,TCHIBANGA,11.01666,-2.85,Gabon
64503,MAYUMBA,10.65,-3.41666,Gabon
64501,PORT-GENTIL,8.75,-0.7,Gabon
64500,LIBREVILLE,9.41666,0.45,Gabon
61717,KAUR,-15.25,13.71666,Gambia
61721,GEORGETOWN,-14.76666,13.53333,Gambia
61712,KEREWAN,-16.18333,13.48333,Gambia
61711,BANJUL_HALF-DIE,-16.45,13.45,Gambia
61707,JENOI,-15.56666,13.48333,Gambia
61720,KUNTAUR,-14.88333,13.66666,Gambia
61722,SAPU,-15.93333,13.56666,Gambia
61705,SIBANOR,-16.2,13.21666,Gambia
61701,BANJUL_YUNDUM,-16.63333,13.2,Gambia
61731,BASSE,-14.21666,13.31666,Gambia
61733,FATOTO,-13.4,13.88333,Gambia
65457,AKIM-ODA,-0.98333,5.93333,Ghana
65459,KOFORIDUA,-0.25,6.08333,Ghana
65460,AKUSE,0.11666,6.1,Ghana
65401,NAVRONGO,-1.1,10.9,Ghana
65404,WA,-2.5,10.05,Ghana
65416,BOLE,-2.48333,9.03333,Ghana
65418,TAMALE,-0.85,9.55,Ghana
65462,AKATSI,0.8,6.11666,Ghana
65465,AXIM,-2.23333,4.86666,Ghana
65467,TAKORADI,-1.76666,4.88333,Ghana
65420,YENDI,-1.66666,9.45,Ghana
65432,WENCHI,-2.1,7.75,Ghana
65469,SALTPOND,-1.06666,5.2,Ghana
65473,TEMA,0,5.61666,Ghana
65472,ACCRA,-0.16666,5.6,Ghana
65437,KETE-KRACHI,-3.33333,7.81666,Ghana
65439,SUNYANI,-2.33333,7.33333,Ghana
65442,KUMASI,-1.6,6.71666,Ghana
65445,SEFWI-BEKWAI,-2.33333,6.2,Ghana
65450,ABETIFI,-0.75,6.66666,Ghana
65453,HO,0.46666,6.6,Ghana
65475,ADA,0.63333,5.78333,Ghana
61769,BOLAMA,-15.48333,11.58333,GuineaB
61777,BISSORA,-15.65,12.21666,GuineaB
61781,BAFATA,-14.66666,12.16666,GuineaB
61766,BISSAU-AEROPORTO-INT-OSVALDO-VIEIRA,-15.65,11.88333,GuineaB
61847,MACENTA,-9.5,8.53333,GuineaC
61802,KOUNDARA,-13.51666,12.56666,GuineaC
61809,LABE,-12.3,11.31666,GuineaC
61811,SIGUIRI,-9.16666,11.43333,GuineaC
61816,BOKE,-14.81666,10.93333,GuineaC
61818,KINDIA,-12.86666,10.05,GuineaC
61820,MAMOU,-12.08333,10.36666,GuineaC
61829,KANKAN,-9.3,10.38333,GuineaC
61831,CONAKRY,-13.61666,9.56666,GuineaC
61832,CONAKRY_GBESSIA,-13.61666,9.56666,GuineaC
61849,N_ZEREKORE,-8.28333,7.75,GuineaC
61834,KISSIDOUGOU,-10.08333,9.41666,GuineaC
61833,FARANAH_BADALA,-10.75,10.03333,GuineaC
63619,MOYALE,39.05,3.58333,Kenya
63708,KISUMU,34.71666,-8.33333,Kenya
63641,MARSABIT,37.98333,2.33333,Kenya
63709,KISII,34.78333,-0.66666,Kenya
63710,KERICHO,35.26666,-0.36666,Kenya
63624,MANDERA,41.85,3.93333,Kenya
63612,LODWAR,35.63333,3.11666,Kenya
63711,SUBA,34.13333,-0.4,Kenya
63793,VOI,38.55,-3.38333,Kenya
63799,MALINDI,38.55,-3.21666,Kenya
63820,MOMBASA-INTERNATIONAL-AIRPORT,39.6,-4,Kenya
63772,LAMU,40.83333,-2.2,Kenya
63766,MAKINDU,37.81666,-2.28333,Kenya
63742,WILSON,36.8,-1.31666,Kenya
63741,DAGORETTI-CORNER,36.75,-1.3,Kenya
63740,JOMO-KENYATTA-NTERNATIONAL-AIRPORT,36.9,-1.31666,Kenya
63737,NAROK,35.85,-1.08333,Kenya
63723,GARISSA,39.63333,-0.46666,Kenya
63720,EMBU,37.45,-0.48333,Kenya
63717,NYERI,36.96666,-0.43333,Kenya
63714,NAKURU,36.1,-0.26666,Kenya
63686,ELDORET,35.3,0.48333,Kenya
63687,KAKAMEGA,34.75,0.26666,Kenya
63688,ELDORET-INTERNATIONAL-AIRPORT,35.21666,0.4,Kenya
63671,WAJIR,40.08333,1.73333,Kenya
63661,KITALE,35,1.01666,Kenya
63695,MERU,37.65,0.05,Kenya
68456,QACHA_S-NEK,28.7,-30.06666,Lesotho
68452,MOKHOTLONG,29.13333,-29.26666,Lesotho
68454,MASERU-MIA,27.55,-29.45,Lesotho
65602,SPRIGGS-PAYNE-AIRPORT,-10.75,6.33333,Liberia
65660,ROBERTS-FIELD,-10.35,6.25,Liberia
62016,MISURATA,15.05,32.41666,Libya
62002,NALUT,10.98333,31.86666,Libya
62007,ZUARA,12.08333,32.88333,Libya
62008,YEFREN,12.55,32.08333,Libya
62010,TRIPOLI-INTERNATIONAL-AIRPORT,13.08333,32.7,Libya
62010,TRIPOLI-INTERNATIONAL-AIRPORT,13.06666,32.73333,Libya
62011,GARIAN,13,32.15,Libya
62012,EL-KHOMS,14.3,32.63333,Libya
62014,BENWLID,14.01666,31.73333,Libya
62018,ABU-NJAYM,15.71666,30.56666,Libya
62019,SIRTE,16.58333,31.2,Libya
62053,BENINA,20.26666,32.1,Libya
62054,AL-MARJ,20.88333,32.51666,Libya
62055,AGEDABIA,20.16666,30.71666,Libya
62056,SHAHAT,21.88333,32.8,Libya
62059,DERNA,22.58333,32.78333,Libya
62062,TOBRUK,23.93333,32.1,Libya
62103,GHADAMES,9.5,30.13333,Libya
62120,GARIAT-EL-SHARGHIA,13.58333,30.38333,Libya
62121,EL-HAMADA,12.93333,29.51666,Libya
62124,SEBHA,14.45,27.01666,Libya
62131,HON,15.95,29.11666,Libya
62161,JALO,21.56666,29.03333,Libya
62176,GIGHBUB,24.53333,29.75,Libya
62200,OBARI,12.78333,26.6,Libya
62212,GHAT,10.15,25.13333,Libya
62259,TAZERBO,21.13333,25.8,Libya
62271,KUFRA,23.3,24.21666,Libya
67143,MANANJARY,48.36666,-21.2,Madagascar
67137,FIANARANTSOA,47.1,-21.45,Madagascar
67131,MOROMBE,43.36666,-21.75,Madagascar
67113,MAHANORO,48.8,-19.83333,Madagascar
67107,ANTSIRABE,47.06666,-19.81666,Madagascar
67083,ANTANANARIVO_IVATO,47.48333,-18.8,Madagascar
67025,ANTALAHA,50.25,-14.88333,Madagascar
67027,MAHAJANGA,46.35,-15.66666,Madagascar
67037,BESALAMPY,44.48333,-16.75,Madagascar
67045,MAEVATANANA,46.83333,-16.95,Madagascar
67022,ANDAPA,49.61666,-14.65,Madagascar
67023,SAMBAVA,50.16666,-14.28333,Madagascar
67067,AMBOHITSILAOZANA,48.5,-17.63333,Madagascar
67117,MORONDAVA,44.31666,-20.28333,Madagascar
67020,ANTSOHIHY,47.98333,-14.88333,Madagascar
67019,ANALALAVA,47.76666,-14.63333,Madagascar
67017,VOHEMAR,50,-13.36666,Madagascar
67012,FASCENE-NOSSI-BE,48.31666,-13.31666,Madagascar
67009,ANTSIRANANA,49.3,-12.35,Madagascar
67073,MAINTIRANO,44.03333,-18.05,Madagascar
67095,TOAMASINA,49.4,-18.11666,Madagascar
67072,SAINTE-MARIE-AERODROME,49.81666,-17.08333,Madagascar
67197,TAOLAGNARO,46.95,-25.03333,Madagascar
67194,FAUX-CAP,45.53333,-25.55,Madagascar
67161,TOLIARA,43.73333,-23.38333,Madagascar
67157,FARAFANGANA,47.83333,-22.8,Madagascar
67152,RANOHIRA,45.4,-22.55,Madagascar
67699,MIMOSA,35.58333,-16.08333,Malawi
67797,MAKANGA,35.15,-16.51666,Malawi
67695,MANGOCHI,35.25,-14.43333,Malawi
67791,BVUMBWE,35.06666,-15.91666,Malawi
67793,THYOLO,35.21666,-16.15,Malawi
67796,NGABU,34.95,-16.5,Malawi
67693,CHILEKA,34.96666,-15.68333,Malawi
67692,MAKOKA,35.21666,-15.51666,Malawi
67690,MONKEY-BAY,34.91666,-14.08333,Malawi
67689,DEDZA,34.26666,-14.31666,Malawi
67687,CHICHIRI,35.03333,-15.78333,Malawi
67597,SALIMA,34.58333,-13.75,Malawi
67591,NKHOTA-KOTA,34.26666,-12.91666,Malawi
67588,NRC,33.66666,-14.16666,Malawi
67586,LILONGWE-INT_L-AIRPORT,33.76666,-13.78333,Malawi
67585,CHITEDZE,33.63333,-13.98333,Malawi
67584,KASUNGU,33.46666,-13.01666,Malawi
67493,NKHATA-BAY,34.3,-11.6,Malawi
67489,MZUZU,34.01666,-11.45,Malawi
67421,CHITIPA,33.26666,-9.7,Malawi
67423,KARONGA,33.88333,-9.95,Malawi
67424,BOLERO,33.73333,-10.96666,Malawi
67485,MZIMBA,33.61666,-11.88333,Malawi
61235,YELIMANE,-10.56666,15.11666,Mali
61240,HOMBORI,-1.68333,15.33333,Mali
61250,MENAKA,2.21666,15.86666,Mali
61257,KAYES,-11.43333,14.43333,Mali
61265,MOPTI,-4.1,14.51666,Mali
61270,KITA,-9.46666,13.06666,Mali
61272,SEGOU,-6.15,13.4,Mali
61277,SAN,-4.83333,13.33333,Mali
61285,KENIEBA,-11.23333,12.85,Mali
61288,DIOILA,-6.8,12.48333,Mali
61291,BAMAKO_SENOU,-7.95,12.53333,Mali
61293,KOUTIALA,-5.46666,12.38333,Mali
61296,BOUGOUNI,-7.5,11.41666,Mali
61297,SIKASSO,-5.68333,11.35,Mali
61202,TESSALIT,0.98333,20.2,Mali
61214,KIDAL,1.35,18.43333,Mali
61223,TOMBOUCTOU,-3,16.71666,Mali
61226,GAO,-0.05,16.26666,Mali
61230,NIORO-DU-SAHEL,-9.35,15.23333,Mali
61233,NARA,-7.28333,15.16666,Mali
61510,SELIBABY,-12.16666,15.23333,Mauritania
61520,BASSIKOUNOU,-5.93333,15.86666,Mauritania
61442,NOUAKCHOTT,-15.95,18.1,Mauritania
61450,TIDJIKJA,-11.43333,18.56666,Mauritania
61461,BOUTILIMIT,-14.68333,17.53333,Mauritania
61470,ALEG,-12.91666,17.05,Mauritania
61437,AKJOUJT,-14.36666,19.75,Mauritania
61421,ATAR,-13.06666,20.51666,Mauritania
61415,NOUADHIBOU,-17.03333,20.93333,Mauritania
61489,ROSSO,-15.81666,16.5,Mauritania
61401,BIR-MOGHREIN,-11.61666,25.23333,Mauritania
61404,ZOUERATE,-12.48333,22.75,Mauritania
61492,KAEDI,-13.51666,16.15,Mauritania
61497,NEMA,-7.26666,16.6,Mauritania
61498,KIFFA,-11.4,16.63333,Mauritania
61499,AIOUN-EL-ATROUSS,-9.6,16.7,Mauritania
61990,PLAISANCE-MAURITIUS,57.68333,-20.43333,Mauritius
61974,AGALEGA,56.6,-10.38333,Mauritius
61986,ST-BRANDON-RAPHAEL-ISLAND,59.61666,-16.45,Mauritius
61988,RODRIGUES-POINT-CANON,63.41666,-19.68333,Mauritius
61989,PLAINE-CORAIL-RODRIGUES,63.36666,-19.75,Mauritius
61995,VACOAS-MAURITIUS,57.48333,-20.28333,Mauritius
60270,TIZNIT,-9.73333,29.68333,Morocco
60128,TAOURIRT,-2.88333,34.38333,Morocco
60127,TAZA,-4,34.21666,Morocco
60120,KENITRA,-6.58333,34.3,Morocco
60115,OUJDA,-1.93333,34.78333,Morocco
60230,MARRAKECH,-8.03333,31.61666,Morocco
60107,AL-HOCEIMA,-3.85,35.18333,Morocco
60106,CHEFCHAOUEN,-5.3,35.16666,Morocco
60105,LARACHE,-6.1,35.15,Morocco
60101,TANGER-AERODROME,-5.9,35.71666,Morocco
60100,TANGER-PORT,-5.8,35.78333,Morocco
60060,SIDI-IFNI,-10.18333,29.36666,Morocco
60220,ESSAOUIRA,-9.78333,31.51666,Morocco
60210,ERRACHIDIA,-4.4,31.93333,Morocco
60200,BOUARFA,-1.95,32.56666,Morocco
60195,MIDELT,-4.73333,32.68333,Morocco
60191,BENI-MELLAL,-6.4,32.36666,Morocco
60190,KASBA-TADLA,-6.28333,32.53333,Morocco
60185,SAFI,-9.23333,32.28333,Morocco
60178,KHOURIBGA,-6.96666,32.86666,Morocco
60177,SETTAT,-7.61666,32.95,Morocco
60165,EL-JADIDA,-8.51666,33.23333,Morocco
60160,IFRANE,-5.16666,33.5,Morocco
60156,NOUASSEUR,-7.58333,33.36666,Morocco
60155,CASABLANCA,-7.66666,33.56666,Morocco
60150,MEKNES,-5.51666,33.86666,Morocco
60146,MOHAMMEDIA,-7.4,33.71666,Morocco
60141,FES-SAIS,-4.96666,33.91666,Morocco
60136,SIDI-SLIMANE,-6.05,34.21666,Morocco
60135,RABAT-SALE,-6.75,34.03333,Morocco
60340,NADOR-AROUI,-3.01666,34.98333,Morocco
60335,SMARA,-11.68333,26.73333,Morocco
60318,TETUAN,-5.31666,35.58333,Morocco
60285,TAN-TAN,-11.15,28.43333,Morocco
60280,GUELMIN,-10.05,29.01666,Morocco
60265,OUARZAZATE,-6.9,30.93333,Morocco
60253,TAROUDANT,-8.81666,30.5,Morocco
60252,AGADIR-AL-MASSIRA,-9.38333,30.31666,Morocco
60250,AGADIR-INEZGANNE,-9.56666,30.38333,Morocco
60237,OUKAIMDEN,-7.91666,31.21666,Morocco
60223,TAKERKOUSTE,-8.48333,31.03333,Morocco
67285,PEBANE,38.15,-17.26666,Mozambique
67283,QUELIMANE,36.88333,-17.88333,Mozambique
67280,CAIA,35.33333,-17.83333,Mozambique
67273,ANGOCHE,39.9,-16.21666,Mozambique
67261,TETE,33.58333,-16.18333,Mozambique
67243,ZUMBO,30.43333,-15.61666,Mozambique
67241,LUMBO,40.66666,-15.03333,Mozambique
67237,NAMPULA,39.28333,-15.1,Mozambique
67205,MOCIMBOA-DA-PRAIA,40.36666,-11.35,Mozambique
67223,MONTEPUEZ,39.03333,-13.13333,Mozambique
67221,MARRUPA,37.55,-13.73333,Mozambique
67217,LICHINGA,35.23333,-13.3,Mozambique
67215,PEMBA,40.53333,-12.98333,Mozambique
67231,CUAMBA,36.51666,-14.83333,Mozambique
67229,ULONGUE,34.35,-14.73333,Mozambique
67346,CHANGALANE,32.18333,-26.28333,Mozambique
67341,MAPUTO_MAVALANE,32.56666,-25.91666,Mozambique
67335,XAI-XAI,33.63333,-25.05,Mozambique
67323,INHAMBANE,35.38333,-23.86666,Mozambique
67315,VILANCULOS,35.31666,-22,Mozambique
67308,CHICUALACUALA,31.68333,-22.08333,Mozambique
67297,BEIRA,34.9,-19.8,Mozambique
67295,CHIMOIO,33.46666,-19.11666,Mozambique
68114,OMARURU,15.93333,-21.41666,Namibia
68010,OKAUKUEJO,15.91666,-19.18333,Namibia
68014,GROOTFONTEIN,18.1,-19.58333,Namibia
68016,MOWE-BAY,12.71666,-19.33333,Namibia
68018,RUNDU,19.76666,-17.91666,Namibia
68098,WALVIS-BAY-AIRPORT,14.65,-22.98333,Namibia
68102,OUTJO,16.15,-20.1,Namibia
68300,LUDERITZ-AIRPORT,15.23333,-26.68333,Namibia
68312,KEETMANSHOOP,18.11666,-26.53333,Namibia
68116,GOBABIS,18.96666,-22.46666,Namibia
68104,WALVIS-BAY-PELICAN-POINT,14.43333,-22.88333,Namibia
68212,MARIENTAL,17.86666,-24.5,Namibia
68106,GOBABEB,15.05,-23.56666,Namibia
68108,UIS,14.85,-21.23333,Namibia
68109,EROS,17.06666,-22.6,Namibia
68110,WINDHOEK,17.1,-22.56666,Namibia
68004,OTJIWARONGO,16.63333,-20.45,Namibia
68112,HOSEA-KUTAKO-INTERNATIONAL-AIRPORT,17.46666,-22.46666,Namibia
68006,ONDANGWA,15.95,-17.86666,Namibia
61080,MARADI,7.08333,13.46666,Niger
61099,GAYA,3.45,11.88333,Niger
61096,MAINE-SOROA,11.98333,13.23333,Niger
61090,ZINDER,8.98333,13.78333,Niger
61085,DIFFA,12.78333,13.41666,Niger
61075,BIRNI-N_KONNI,5.25,13.8,Niger
61053,DOSSO,3.3,13.03333,Niger
61052,NIAMEY-AERO,2.16666,13.48333,Niger
61049,N_GUIGMI,13.11666,14.25,Niger
61045,GOURE,10.3,13.98333,Niger
61043,TAHOUA,5.25,14.9,Niger
61036,TILLABERY,1.45,14.2,Niger
61024,AGADEZ,7.98333,16.96666,Niger
61017,BILMA,12.91666,18.68333,Niger
65201,LAGOS_IKEJA,3.33333,6.58333,Nigeria
65202,LAGOS_OSHODI,3.35,6.55,Nigeria
65208,IBADAN,3.9,7.43333,Nigeria
65215,OSHOGBO,4.48333,7.78333,Nigeria
65222,ONDO,4.83333,7.1,Nigeria
65229,BENIN-CITY,5.6,6.31666,Nigeria
65236,WARRI,5.73333,5.51666,Nigeria
65243,LOKOJA,6.73333,7.8,Nigeria
65245,ONITSHA,6.78333,6.15,Nigeria
65250,PORT-HARCOURT,7.01666,4.85,Nigeria
65257,ENUGU,7.55,6.46666,Nigeria
65264,CALABAR,8.35,4.96666,Nigeria
65271,MAKURDI,8.61666,7.68333,Nigeria
65272,OGOJA,8.8,6.66666,Nigeria
65273,IKOM,8.71666,5.96666,Nigeria
65167,YOLA,12.46666,9.23333,Nigeria
65145,IBI,9.75,8.18333,Nigeria
65134,JOS,8.9,9.86666,Nigeria
65125,ABUJA,7,9.25,Nigeria
65123,MINNA,6.53333,9.61666,Nigeria
65112,BIDA,6.01666,9.1,Nigeria
65101,ILORIN,4.58333,8.48333,Nigeria
65082,MAIDUGURI,13.08333,11.85,Nigeria
65073,POTISKUM,11.03333,11.7,Nigeria
65064,NGURU,10.46666,12.88333,Nigeria
65055,BAUCHI,9.81666,10.28333,Nigeria
65046,KANO,8.53333,12.05,Nigeria
65030,ZARIA,7.68333,11.13333,Nigeria
65028,KATSINA,7.68333,13.01666,Nigeria
65019,KADUNA,7.45,10.6,Nigeria
65015,GUSAU,6.7,12.16666,Nigeria
65010,SOKOTO,5.25,13.01666,Nigeria
65001,YELWA,4.75,10.88333,Nigeria
61996,MARTIN-DE-VIVIES-ILE-AMSTERDAM,77.56666,-37.78333,Ocean-Islands
61998,PORT-AUX-FRANCAIS-ILES-KERGUELEN,70.23333,-49.35,Ocean-Islands
61997,ALFRED-FAURE-ILES-CROZET,51.85,-46.41666,Ocean-Islands
61980,SAINT-DENIS_GILLOT-REUNION,55.51666,-20.88333,Ocean-Islands
61979,LE-COLORADO,55.41666,-20.9,Ocean-Islands
61976,SERGE-FROLOW-ILE-TROMELIN,54.51666,-15.88333,Ocean-Islands
61972,ILE-EUROPA,40.33333,-22.33333,Ocean-Islands
61970,ILE-JUAN-DE-NOVA,42.7,-17.05,Ocean-Islands
61968,ILES-GLORIEUSES,47.28333,-11.56666,Ocean-Islands
61967,DIEGO-GARCIA,72.4,-7.3,Ocean-Islands
61934,PRINCIPE,7.41666,1.65,Ocean-Islands
61931,S-TOME,6.71666,0.38333,Ocean-Islands
61902,WIDE-AWAKE-FIELD-ASCENSION-IS,-14.4,-7.96666,Ocean-Islands
61901,ST-HELENA-IS,-5.66666,-15.93333,Ocean-Islands
64380,KAMEMBE,28.91666,-2.46666,Rwanda
64384,BUTARE,29.71666,-2.6,Rwanda
64387,KIGALI,30.11666,-1.95,Rwanda
64383,RUHENGERI,29.61666,-1.48333,Rwanda
64381,GISENYI,29.25,-1.66666,Rwanda
61612,PODOR,-14.91666,16.63333,Senegal
61630,MATAM,-13.25,15.61666,Senegal
61699,KEDOUGOU,-12.21666,12.56666,Senegal
61698,KOLDA,-14.96666,12.86666,Senegal
61697,CAP-SKIRRING,-16.75,12.03333,Senegal
61641,DAKAR_YOFF,-17.5,14.71666,Senegal
61666,DIOURBEL,-16.21666,14.65,Senegal
61679,KAOLACK,-16.06666,14.11666,Senegal
61687,TAMBACOUNDA,-13.66666,13.76666,Senegal
61600,SAINT-LOUIS,-16.43333,16.05,Senegal
61627,LINGUERE,-15.11666,15.36666,Senegal
61695,ZIGUINCHOR,-16.26666,12.55,Senegal
63985,SEYCHELLES-INTER-AIRPORT-RAWINSONDE-STATION,55.51666,-4.68333,Seychelles
63981,PRASLIN,55.68333,-5.31666,Seychelles
63994,DESROCHES,53.06666,-5.68333,Seychelles
63995,ALDABRA,46.53333,-9.35,Seychelles
63996,FARQUHAR,51.16666,-10.1,Seychelles
63980,SEYCHELLES-INTERNATIONAL-AIRPORT,55.51666,-4.66666,Seychelles
61891,DARU,-10.85,7.98333,Sierra-Leone
61892,SEFADU,-10.96666,8.65,Sierra-Leone
61886,KABALA,-11.55,9.58333,Sierra-Leone
61881,BO,-11.76666,7.95,Sierra-Leone
61878,NJALA,-12.1,8.1,Sierra-Leone
61877,YELE,-11.83333,8.41666,Sierra-Leone
61873,MAKENI,-12.05,8.55,Sierra-Leone
61866,BONTHE,-12.5,7.53333,Sierra-Leone
61856,LUNGI,-13.2,8.61666,Sierra-Leone
63237,EL-BUR,46.61666,4.7,Somalia
63240,BELET-UEN,45.21666,4.7,Somalia
63245,HUDDUR,43.86666,4.18333,Somalia
63247,ISCIA-BAIDOA,43.66666,3.13333,Somalia
63248,LUG-GANANE,42.45,3.58333,Somalia
63250,BARDERA,42.3,2.35,Somalia
63260,MOGADISCIO,45.35,2.03333,Somalia
63270,CHISIMAIO,42.43333,-0.36666,Somalia
63170,HARGEISA,44.08333,9.5,Somalia
63235,OBBIA,48.56666,5.33333,Somalia
63230,GALCAYO,47.26666,6.85,Somalia
63228,EIL,49.78333,7.95,Somalia
63227,GAROE,48.5,7.95,Somalia
63225,GARDO,49.08333,9.51666,Somalia
63220,SCUSCIUBAN,50.23333,10.3,Somalia
63210,BOSASO,49.18333,11.28333,Somalia
63200,ALULA,50.73333,11.95,Somalia
63150,BORAMA,43.18333,9.95,Somalia
63160,BERBERA,45.01666,10.41666,Somalia
63190,LAS-ANOD,47.36666,8.5,Somalia
63180,ERIGAVO,47.36666,10.63333,Somalia
63175,BURAO,45.56666,9.51666,Somalia
68999,CT-AWS,18.6,-33.95,South-Africa
68155,LEPHALALE,27.7,-23.66666,South-Africa
68163,MARKEN,28.36666,-23.6,South-Africa
68174,POLOKWANE,29.45,-23.86666,South-Africa
68176,MARA,29.56666,-23.15,South-Africa
68181,TSHIPISE,30.16666,-22.61666,South-Africa
68182,LEVUBU,30.26666,-23.06666,South-Africa
68183,THOHOYANDOU,30.38333,-23.08333,South-Africa
68185,LYDENBURG,30.46666,-25.1,South-Africa
68191,PHALABORWA,31.15,-23.93333,South-Africa
68196,PUNDA-MARIA,31.01666,-22.66666,South-Africa
68241,MADIKWE-GAME-RESERVE,26.18333,-24.68333,South-Africa
68242,MAFIKENG,25.55,-25.8,South-Africa
68253,THABAZIMBI,27.41666,-24.56666,South-Africa
68255,RUSTENBURG,27.21666,-25.65,South-Africa
68257,PILANESBERG,27.21666,-25.25,South-Africa
68261,BOLEPI-HOUSE,28.25,-25.81666,South-Africa
68262,PRETORIA-EENDRACHT,28.18333,-25.73333,South-Africa
68263,PRETORIA-IRENE,28.2,-25.9,South-Africa
68265,GRAND-CENTRAL,28.13333,-25.98333,South-Africa
68267,ERMELO,29.98333,-26.48333,South-Africa
68268,WARMBAD-TOWOOMBA,28.31666,-24.9,South-Africa
68269,PRETORIA-UNISA,28.2,-25.76666,South-Africa
68271,KOPANE,29,-24.2,South-Africa
68272,OUDESTAD,29.31666,-25.16666,South-Africa
68273,WITBANK,29.18333,-25.83333,South-Africa
68285,BELFAST,30.03333,-25.68333,South-Africa
68287,GRASKOP,30.85,-24.91666,South-Africa
68289,NELSPRUIT,30.91666,-25.5,South-Africa
68291,HOEDSPRUIT,31.05,-24.35,South-Africa
68295,SKUKUZA,31.56666,-24.96666,South-Africa
68296,SKUKUZA,31.6,-24.96666,South-Africa
68297,KOMATIDRAAI,31.9,-25.51666,South-Africa
68322,TWEE-RIVIEREN,20.6,-26.46666,South-Africa
68329,VAN-ZYLSRUS,22.05,-26.88333,South-Africa
68331,KATHU,23,-27.66666,South-Africa
68333,KURUMAN,23.43333,-27.41666,South-Africa
68335,TAUNG,24.76666,-27.53333,South-Africa
68338,VRYBURG,24.61666,-26.95,South-Africa
68341,LICHTENBURG,26.16666,-26.11666,South-Africa
68342,OTTOSDAL,26.01666,-26.81666,South-Africa
68343,BLOEMHOF,25.61666,-27.65,South-Africa
68345,WELKOM,26.65,-27.98333,South-Africa
68347,KLERKSDORP,26.61666,-26.9,South-Africa
68349,VENTERSDORP,26.81666,-26.31666,South-Africa
68350,POTCHEFSTROOM,27.06666,-26.71666,South-Africa
68353,VEREENIGING,27.95,-26.56666,South-Africa
68355,KROONSTAD,27.21666,-27.61666,South-Africa
68361,JOHANNESBURG-BOT-TUINE,28,-26.15,South-Africa
68362,FRANKFORT-TNK,28.48333,-27.26666,South-Africa
68363,SPRINGS,28.41666,-26.2,South-Africa
68368,JOHANNESBURG-INTNL-AIRPORT,28.21666,-26.15,South-Africa
68370,BETHAL,29.45,-26.45,South-Africa
68375,VREDE,29.16666,-27.41666,South-Africa
68377,NEWCASTLE,29.96666,-27.76666,South-Africa
68380,CAROLINA,30.11666,-26.06666,South-Africa
68387,VRYHEID,30.8,-27.76666,South-Africa
68397,MBAZWANA-AIRFIELD,32.58333,-27.46666,South-Africa
68400,MAKATINI,32.16666,-27.38333,South-Africa
68403,ALEXANDER-BAY,16.53333,-28.56666,South-Africa
68408,PORT-NOLLOTH,16.86666,-29.23333,South-Africa
68411,VIOOLSDRIF,17.61666,-28.76666,South-Africa
68416,POFADDER,19.38333,-29.11666,South-Africa
68424,UPINGTON,21.25,-28.4,South-Africa
68425,AUGRABIES-FALLS,20.33333,-28.6,South-Africa
68429,POSTMASBURG,23.06666,-28.33333,South-Africa
68438,KIMBERLEY,24.8,-28.8,South-Africa
68442,BLOEMFONTEIN-AIRPORT,26.3,-29.1,South-Africa
68443,BLOEMFONTEIN-CITY,26.16666,-29.11666,South-Africa
68447,GLEN-COLLEGE-AWS,26.33333,-28.95,South-Africa
68449,FICKSBURG,27.9,-28.81666,South-Africa
68461,BETHLEHEM,28.4,-28.23333,South-Africa
68471,VAN-REENEN,29.36666,-28.36666,South-Africa
68474,ROYAL-NATIONAL-PARK,28.95,-28.68333,South-Africa
68478,ESTCOURT,29.86666,-29,South-Africa
68479,LADYSMITH,29.76666,-28.56666,South-Africa
68481,PONGOLA,31.58333,-27.4,South-Africa
68485,MOOI-RIVER,30,-29.2,South-Africa
68487,GREYTOWN,30.6,-29.06666,South-Africa
68488,BABANANGO,31.21666,-28.36666,South-Africa
68491,CHARTERS-CREEK,32.41666,-28.2,South-Africa
68493,ULUNDI,31.41666,-28.3,South-Africa
68494,MANDINI,31.4,-29.15,South-Africa
68495,RICHARDS-BAY,32.06666,-28.71666,South-Africa
68497,MTUNZINI,31.7,-28.95,South-Africa
68512,SPRINGBOK,17.88333,-29.66666,South-Africa
68513,KOINGNAAS,17.28333,-30.18333,South-Africa
68514,HENKRIES,18.08333,-28.96666,South-Africa
68515,GARIES-GROENRIVIER,17.56666,-30.85,South-Africa
68523,BRANDVLEI,20.46666,-30.45,South-Africa
68524,VANWYKSVLEI,21.81666,-30.35,South-Africa
68527,PRIESKA,22.71666,-29.66666,South-Africa
68538,DE-AAR,23.98333,-30.66666,South-Africa
68541,FAURESMITH,25.18333,-29.45,South-Africa
68543,GARIEP-DAM,25.53333,-30.53333,South-Africa
68546,ALIWAL-NORTH-PLAATKOP,26.86666,-30.83333,South-Africa
68549,WEPENER,26.86666,-29.9,South-Africa
68558,BARKLY-EAST-CAERLEON,27.6,-30.91666,South-Africa
68570,MATATIELE,28.8,-30.33333,South-Africa
68572,SHALEBURN,29.35,-29.78333,South-Africa
68575,IXOPO,30.06666,-30.15,South-Africa
68577,KOKSTAD,29.38333,-30.5,South-Africa
68579,PADDOCK,30.25,-30.75,South-Africa
68580,CEDARA,30.25,-29.53333,South-Africa
68581,PIETERMARITZBURG,30.4,-29.61666,South-Africa
68582,ORIBI-AIRPORT,30.4,-29.65,South-Africa
68583,MOUNT-EDGECOMBE,31.05,-29.7,South-Africa
68585,PENNINGTON-SOUTH,30.68333,-30.38333,South-Africa
68587,PORT-EDWARD,30.21666,-31.06666,South-Africa
68588,DURBAN-INTNL-AIRPORT,30.93333,-29.95,South-Africa
68589,GIANTS-CASTLE,29.51666,-29.26666,South-Africa
68591,MARGATE,30.31666,-30.85,South-Africa
68592,KING-SHAKA-INT_L-AIRPORT,31.11666,-29.6,South-Africa
68593,DURBAN-VIRGINIA,31.05,-29.76666,South-Africa
68613,LAMBERTS-BAY-NORTIER,18.31666,-32.03333,South-Africa
68614,VREDENDAL,18.48333,-31.66666,South-Africa
68618,CALVINIA,19.75,-31.46666,South-Africa
68619,NIEUWOUDTVILLE,19.08333,-31.33333,South-Africa
68624,FRASERBURG,21.5,-31.9,South-Africa
68633,NOUPOORT,24.96666,-31.18333,South-Africa
68647,QUEENSTOWN,26.86666,-31.91666,South-Africa
68649,JAMESTOWN,26.8,-31.11666,South-Africa
68651,ELLIOT,27.83333,-31.33333,South-Africa
68657,COFIMVABA,27.58333,-31.98333,South-Africa
68668,UMTATA,28.66666,-31.51666,South-Africa
68671,MAZEPPA-BAY,28.63333,-32.45,South-Africa
68673,BUTTERWORTH,28.11666,-32.25,South-Africa
68674,CAPE-HERMES,29.55,-31.61666,South-Africa
68677,COFFEE-BAY,29.13333,-31.95,South-Africa
68711,CLANWILLIAM,18.88333,-32.16666,South-Africa
68712,CAPE-COLUMBINE,17.85,-32.81666,South-Africa
68713,PAARL,18.96666,-33.71666,South-Africa
68714,LANGEBAANWEG,18.15,-32.96666,South-Africa
68715,MALMESBURY,18.71666,-33.46666,South-Africa
68717,PORTERVILLE,18.96666,-33,South-Africa
68718,ROBERTSON,19.88333,-33.78333,South-Africa
68719,EXCELSIOR-CERES,19.41666,-32.95,South-Africa
68722,SUTHERLAND,20.65,-32.4,South-Africa
68723,LAINGSBURG,20.86666,-33.18333,South-Africa
68727,BEAUFORT-WEST,22.56666,-32.35,South-Africa
68737,GRAAFF-REINET,24.53333,-32.18333,South-Africa
68744,CRADOCK-MUN,25.61666,-32.16666,South-Africa
68747,FORT-BEAUFORT,26.61666,-32.78333,South-Africa
68752,BISHO,27.26666,-32.9,South-Africa
68754,DOHNE-AGR,27.46666,-32.53333,South-Africa
68811,GEELBEK,18.11666,-33.18333,South-Africa
68813,ROBBEN-ISLAND,18.36666,-33.78333,South-Africa
68814,DASSEN-ISLAND,18.08333,-33.41666,South-Africa
68816,CAPE-TOWN-INTNL-AIRPORT,18.6,-33.96666,South-Africa
68817,CAPE-TOWN-PORTNET,18.45,-33.9,South-Africa
68819,MOLTENO-RESERVIOR,18.4,-33.93333,South-Africa
68821,WORCESTER,19.41666,-33.65,South-Africa
68825,LADISMITH,21.26666,-33.5,South-Africa
68826,OUDTSHOORN,22.18333,-33.6,South-Africa
68828,GEORGE-AIRPORT,22.38333,-34.01666,South-Africa
68832,WILLOWMORE,23.48333,-33.3,South-Africa
68833,JOUBERTINA,23.85,-33.83333,South-Africa
68835,PATENSIE,24.81666,-33.75,South-Africa
68837,NGQURA-COEGA,25.66666,-33.8,South-Africa
68839,UITENHAGE,25.43333,-33.7,South-Africa
68840,SOMERSET-EAST,25.71666,-33.03333,South-Africa
68841,ADDO-ELEPHANT-PARK,25.73333,-33.43333,South-Africa
68842,PORT-ELIZABETH,25.6,-33.98333,South-Africa
68843,PORT-ALFRED-ARPORT,26.86666,-33.55,South-Africa
68845,BIRD-ISLAND,26.28333,-33.83333,South-Africa
68849,GRAHAMSTOWN,26.5,-33.28333,South-Africa
68858,EAST-LONDON,27.81666,-33.01666,South-Africa
68906,GOUGH-ISLAND,-9.86666,-40.35,South-Africa
68911,STRAND,18.83333,-34.13333,South-Africa
68912,SLANGKOP,18.31666,-34.13333,South-Africa
68915,CAPE-POINT,18.48333,-34.35,South-Africa
68916,CAPE-POINT,18.48333,-34.35,South-Africa
68918,HERMANUS,19.21666,-34.41666,South-Africa
68920,CAPE-AGULHAS,20,-34.81666,South-Africa
68921,STRUISBAAI,20.05,-34.8,South-Africa
68923,TYGERHOEK,19.9,-34.13333,South-Africa
68925,ELGIN-EXP-FARM,19.01666,-34.13333,South-Africa
68926,RIVERSDALE,21.25,-34.08333,South-Africa
68927,STILBAAI,21.38333,-34.36666,South-Africa
68928,CAPE-ST-BLAIZE,22.11666,-34.18333,South-Africa
68931,PLETTENBERG-BAY,23.31666,-34.08333,South-Africa
68933,TSITSIKAMMA,23.9,-34.01666,South-Africa
68935,KNYSNA,23.08333,-34.05,South-Africa
68938,CAPE-ST-FRANCIS,24.81666,-34.2,South-Africa
68939,CAPE-ST-FRANCIS,24.85,-34.2,South-Africa
68994,MARION-ISLAND,37.86666,-46.86666,South-Africa
60030,LAS-PALMAS-DE-GRAN-CANARIA_GANDO,-15.38333,27.91666,Spain-Canary-Islands
60005,LA-PALMA_AEROPUERTO,-17.75,28.61666,Spain-Canary-Islands
60001,HIERRO_AEROPUERTO,-17.88333,27.81666,Spain-Canary-Islands
60015,TENERIFE_LOS-RODEOS,-16.31666,28.46666,Spain-Canary-Islands
60028,ARTENARA,-15.6,28.01666,Spain-Canary-Islands
60007,LA-GOMERA_AEROPUERTO,-17.2,28.01666,Spain-Canary-Islands
60018,TENERIFE-GUIMAR,-16.36666,28.31666,Spain-Canary-Islands
60040,LANZAROTE_AEROPUERTO,-13.6,28.95,Spain-Canary-Islands
60035,FUERTEVENTURA_AEROPUERTO,-13.85,28.43333,Spain-Canary-Islands
60020,STA-CRUZ-DE-TENERIFE,-16.23333,28.45,Spain-Canary-Islands
60025,TENERIFE-SUR,-16.55,28.03333,Spain-Canary-Islands
60010,IZANA,-16.48333,28.3,Spain-Canary-Islands
60338,MELILLA,-2.95,35.26666,Spain-Ceuta-And-Melilla
60320,CEUTA,-5.33333,35.9,Spain-Ceuta-And-Melilla
62803,RASHAD,31.05,11.86666,Sudan
62805,DAMAZINE,34.38333,11.78333,Sudan
62809,BABANUSA,27.81666,11.33333,Sudan
62810,KADOGLLI,29.71666,11,Sudan
62840,MALKAL,31.65,9.55,Sudan
62871,RAGA,25.68333,8.46666,Sudan
62880,WAU,28.01666,7.7,Sudan
62941,JUBA,31.6,4.86666,Sudan
62600,WADI-HALFA,31.35,21.81666,Sudan
62700,SHENDI,33.43333,16.7,Sudan
62721,KHARTOUM,32.55,15.6,Sudan
62722,AROMA,36.15,15.83333,Sudan
62723,SHAMBAT-OBSERVATORY,32.53333,15.66666,Sudan
62730,KASSALA,36.4,15.46666,Sudan
62733,HALFA-EL-GAIDIDA,35.6,15.31666,Sudan
62750,ED-DUEIM,32.33333,14,Sudan
62751,WAD-MEDANI,33.48333,14.4,Sudan
62752,GEDAREF,35.4,14.03333,Sudan
62760,EL-FASHER,25.33333,13.61666,Sudan
62762,SENNAR,33.61666,13.55,Sudan
62770,GENINA,22.45,13.48333,Sudan
62771,EL-OBEID,30.23333,13.16666,Sudan
62772,KOSTI,32.66666,13.16666,Sudan
62774,UMM-BENIN,33.95,13.06666,Sudan
62781,EN-NAHUD,28.43333,12.7,Sudan
62790,NYALA,24.88333,12.05,Sudan
62795,ABU-NA_AMA,34.13333,12.73333,Sudan
62801,RENK,32.78333,11.75,Sudan
62615,HALIB,36.65,22.21666,Sudan
62620,STATION-NO_6,32.55,20.75,Sudan
62635,ARBAT,36.96666,19.83333,Sudan
62640,ABU-HAMED,33.31666,19.53333,Sudan
62641,PORT-SUDAN,37.21666,19.58333,Sudan
62650,DONGOLA,30.48333,19.16666,Sudan
62652,SUAKIN,37.33333,19.1,Sudan
62660,KARIMA,31.85,18.55,Sudan
62671,TOKAR,37.73333,18.43333,Sudan
62675,AGIG,38.18333,18.23333,Sudan
62680,ATBARA,33.96666,17.7,Sudan
62682,HUDEIBA,33.93333,17.56666,Sudan
68390,MAYIWANE,31.5,-25.88333,Eswatini
68391,MBABANE,31.13333,-26.33333,Eswatini
68298,LOMAHASHA,31.98333,-25.98333,Eswatini
68299,PIGGS-PEAK,31.25,-25.96666,Eswatini
68399,BIG-BEND,31.91666,-26.85,Eswatini
68398,SITEKI,31.95,-26.43333,Eswatini
68396,MANZINI_MATSAPA-AIRPORT,31.3,-26.53333,Eswatini
68392,NHLANGANO,31.1,-27.05,Eswatini
68395,HLATHIKHULU,31.31666,-26.96666,Eswatini
68393,LAVUMISA,31.81666,-27.26666,Eswatini
65352,MANGO,0.46666,10.36666,Togo
65351,DAPAON,0.25,10.86666,Togo
65387,LOME,1.25,6.16666,Togo
65380,TABLIGBO,1.5,6.58333,Togo
65378,KOUMA-KONDA,0.58333,6.95,Togo
65376,ATAKPAME,1.11666,7.58333,Togo
65361,SOKODE,1.15,8.98333,Togo
65357,KARA,1.16666,9.55,Togo
65355,NIAMTOUGOU,1.1,9.76666,Togo
60731,ENFIDHA,10.45,36.06666,Tunisia
60728,NABEUL,10.7,36.46666,Tunisia
60725,JENDOUBA,8.8,36.48333,Tunisia
60723,BEJA,9.18333,36.73333,Tunisia
60720,KELIBIA,11.08333,36.85,Tunisia
60715,TUNIS-CARTHAGE,10.23333,36.83333,Tunisia
60714,BIZERTE,9.8,37.25,Tunisia
60710,TABARKA,8.75,36.95,Tunisia
60780,EL-BORMA,9.3,31.68333,Tunisia
60775,REMADA,10.4,32.31666,Tunisia
60772,TATAOUINE,10.45,32.91666,Tunisia
60770,MEDENINE,10.48333,33.35,Tunisia
60769,DJERBA-MELLITA,10.76666,33.86666,Tunisia
60765,GABES,10.1,33.88333,Tunisia
60764,KEBILI,8.96666,33.7,Tunisia
60760,TOZEUR,8.16666,33.91666,Tunisia
60750,SFAX-EL-MAOU,10.68333,34.71666,Tunisia
60748,SIDI-BOUZID,9.48333,35,Tunisia
60745,GAFSA,8.81666,34.41666,Tunisia
60742,MAHDIA,11.06666,35.5,Tunisia
60740,MONASTIR-SKANES,10.75,35.66666,Tunisia
60739,KASSERINE,8.83333,35.16666,Tunisia
60738,THALA,8.68333,35.55,Tunisia
60735,KAIROUAN,10.1,35.66666,Tunisia
60734,SILIANA,9.36666,36.06666,Tunisia
60732,LE-KEF,8.7,36.13333,Tunisia
60729,ZAGHOUAN,10.08333,36.43333,Tunisia
63684,TORORO,34.16666,0.68333,Uganda
63682,JINJA,33.18333,0.45,Uganda
63680,KAMPALA,32.61666,0.31666,Uganda
63674,KASESE,30.1,0.18333,Uganda
63726,KABALE,29.98333,-1.25,Uganda
63705,ENTEBBE-AIRPORT,32.45,0.05,Uganda
63702,MBARARA,30.65,-0.61666,Uganda
63602,ARUA,30.91666,3.05,Uganda
63658,SOROTI,33.61666,1.71666,Uganda
63654,MASINDI,31.71666,1.68333,Uganda
63630,GULU,32.33333,2.75,Uganda
63628,PARAA,31.58333,2.3,Uganda
63789,ARUSHA,36.61666,-3.33333,Tanzania
63784,SHINYANGA,33.35,-3.65,Tanzania
63756,MWANZA,32.91666,-2.46666,Tanzania
63733,MUSOMA,33.8,-1.5,Tanzania
63729,BUKOBA,31.81666,-1.33333,Tanzania
63962,SONGEA,35.58333,-10.68333,Tanzania
63969,NACHINGWEA,38.75,-10.35,Tanzania
63971,MTWARA,40.18333,-10.26666,Tanzania
63790,MOSHI,37.33333,-3.35,Tanzania
63881,SUMBAWANGA,31.63333,-7.96666,Tanzania
63887,IRINGA,35.75,-7.66666,Tanzania
63894,DAR-ES-SALAAM-INT,39.2,-6.86666,Tanzania
63895,MAFIA_KILINDONI,39.66666,-7.91666,Tanzania
63932,MBEYA,33.46666,-8.93333,Tanzania
63936,MAHENGE,36.71666,-8.66666,Tanzania
63816,SAME,37.71666,-4.08333,Tanzania
63791,KILIMANJARO-INT,37.06666,-3.41666,Tanzania
63801,KIGOMA,29.63333,-4.88333,Tanzania
63810,SINGIDA,34.71666,-4.8,Tanzania
63832,TABORA-AIRPORT,32.83333,-5.08333,Tanzania
63866,MOROGORO,37.65,-6.83333,Tanzania
63870,ZANZIBAR_KISAUNI,39.21666,-6.21666,Tanzania
63840,HANDENI,38.03333,-5.43333,Tanzania
63844,TANGA,39.06666,-5.08333,Tanzania
63845,PEMBA_KARUME,39.81666,-5.25,Tanzania
63862,DODOMA,35.76666,-6.16666,Tanzania
60033,LAAYOUNE,-13.21666,27.16666,Western-Sahara
60096,DAKHLA,-15.93333,23.71666,Western-Sahara
67599,MFUWE,31.93333,-13.26666,Zambia
67441,MWINILUNGA,24.43333,-11.75,Zambia
67461,MANSA,28.85,-11.1,Zambia
67475,KASAMA,31.13333,-10.21666,Zambia
67476,MISAMFU,31.25,-10.1,Zambia
67477,MPIKA,31.43333,-11.9,Zambia
67481,ISOKA,32.63333,-10.11666,Zambia
67531,ZAMBEZI,23.11666,-13.53333,Zambia
67541,KASEMPA,25.85,-13.53333,Zambia
67543,KABOMPO,24.2,-13.6,Zambia
67551,SOLWEZI,26.38333,-12.18333,Zambia
67561,NDOLA,28.65,-13,Zambia
67563,KAFIRONDA,28.11666,-12.6,Zambia
67571,SERENJE,30.21666,-13.23333,Zambia
67575,MKUSHI,29.43333,-13.63333,Zambia
67580,MSEKERA,32.56666,-13.65,Zambia
67581,CHIPATA,32.58333,-13.55,Zambia
67583,LUNDAZI,33.2,-12.28333,Zambia
67625,KALABO,22.7,-14.85,Zambia
67633,MONGU,23.15,-15.25,Zambia
67641,KAOMA,24.8,-14.8,Zambia
67655,MUMBWA,27.18333,-15.06666,Zambia
67659,KAFUE-POLDER,27.91666,-15.76666,Zambia
67662,KABWE-AGRIC,28.5,-14.4,Zambia
67663,KABWE,28.46666,-14.45,Zambia
67665,LUSAKA-INTERNATIONAL-AIRPORT,28.45,-15.31666,Zambia
67666,LUSAKA-CITY-AIRPORT,28.46666,-15.41666,Zambia
67667,MOUNT-MAKULU,28.25,-15.55,Zambia
67673,PETAUKE,31.28333,-14.25,Zambia
67731,SENANGA,23.26666,-16.1,Zambia
67741,SESHEKE,24.3,-17.46666,Zambia
67743,LIVINGSTONE,25.81666,-17.81666,Zambia
67751,MAGOYE,27.6,-16,Zambia
67753,CHOMA,27.06666,-16.83333,Zambia
67403,KAWAMBWA,29.08333,-9.8,Zambia
67413,MBALA,31.33333,-8.85,Zambia
67875,BUHERA,31.43333,-19.31666,Zimbabwe
67877,GRASSLANDS,31.46666,-18.18333,Zimbabwe
67881,RUSAPE,32.13333,-18.53333,Zimbabwe
67889,WYANGA,32.75,-18.28333,Zimbabwe
67891,MHONDORO,30.6,-19.31666,Zimbabwe
67895,MUKANDI,32.85,-18.71666,Zimbabwe
67897,CHISENGU,32.88333,-19.88333,Zimbabwe
67899,WEDZA,31.56666,-18.61666,Zimbabwe
67951,PLUMTREE,27.8,-20.48333,Zimbabwe
67961,KEZI,28.45,-20.91666,Zimbabwe
67963,MATOPOS,28.55,-20.38333,Zimbabwe
67964,BULAWAYO-GOETZ-OBSY,28.61666,-20.15,Zimbabwe
67965,BULAWAYO-AIRPORT,28.61666,-20.01666,Zimbabwe
67967,TULI,28.98333,-21.38333,Zimbabwe
67969,WEST-NICHOLSON,29.36666,-21.05,Zimbabwe
67971,ZVISHAVANE,30.06666,-20.31666,Zimbabwe
67974,MAKOHOLI,30.78333,-19.83333,Zimbabwe
67975,MASVINGO,30.86666,-20.06666,Zimbabwe
67976,RUPIKE,31.08333,-20.55,Zimbabwe
67977,BUFFALO-RANGE,31.58333,-21.01666,Zimbabwe
67979,ZAKA,31.46666,-20.33333,Zimbabwe
67983,CHIPINGE,32.61666,-20.2,Zimbabwe
67991,BEITBRIDGE,30,-22.21666,Zimbabwe
67867,GWERU,29.85,-19.45,Zimbabwe
67865,KWEKWE,29.83333,-18.93333,Zimbabwe
67863,NKAYI,28.9,-19,Zimbabwe
67861,GOKWE,28.93333,-18.21666,Zimbabwe
67853,HWANGE-NATIONAL-PARK,27,-18.63333,Zimbabwe
67843,VICTORIA-FALLS,25.85,-18.1,Zimbabwe
67789,MVURWI,30.98333,-17.03333,Zimbabwe
67785,HERNDERSON,30.96666,-17.58333,Zimbabwe
67781,MUTOKO,32.21666,-17.41666,Zimbabwe
67779,MOUNT-DARWIN,31.58333,-16.78333,Zimbabwe
67775,HARARE-KUTSAGA,31.13333,-17.91666,Zimbabwe
67774,HARARE-BELVEDERE,31.01666,-17.83333,Zimbabwe
67773,GURUVE,30.7,-16.65,Zimbabwe
67771,CHINHOYI,30.2,-17.36666,Zimbabwe
67767,KANYEMBA,30.41666,-15.63333,Zimbabwe
67765,KAROI,29.61666,-16.83333,Zimbabwe
67761,KARIBA,28.88333,-16.51666,Zimbabwe
67755,BINGA,27.33333,-17.61666,Zimbabwe
67869,KADOMA,29.88333,-18.31666,Zimbabwe
67871,CHIVHU,30.88333,-19.03333,Zimbabwe
8583,MINDELO,-25.05,16.833,Cabo-Verde
8594,AMILCAR-CABRAL-INTL,-22.949,16.741,Cabo-Verde
8594,SAO-PEDRO,-25.057,16.834,Cabo-Verde
60034,DAKHLA,-23.718,15.932,Cabo-Verde
60371,OUED-KORICHE,3.033,36.783,Algeria
60372,BOUZAREAH,3,36.783,Algeria
60373,MEHELMA,2.883,36.7,Algeria
60374,AIN-BENAIN,2.883,36.783,Algeria
60376,BORDJ-EL-BAHRI,3.25,36.783,Algeria
60379,REGHAIA,3.333,36.767,Algeria
60380,TESSALA-EL-MERDJA,2.917,36.617,Algeria
60381,EL-HARRACH,3.15,36.717,Algeria
60394,BARAKI,3.1,36.683,Algeria
60459,TAFARAOUI,-0.533,35.533,Algeria
60492,RELIZANE,0.617,35.75,Algeria
60612,TIRIRINE,8.583,22.05,Algeria
60638,TIN-FOUYE,7.552,28.447,Algeria
60645,REGGANE,0.283,26.717,Algeria
60650,AMGUID,5.367,26.417,Algeria
60661,ABDENNIZI,5.117,25.217,Algeria
60662,FADNOUNE,8.183,25.817,Algeria
60663,MOULAY-LACHEN,4.65,24.717,Algeria
60672,MERTOUEK,5.533,24.217,Algeria
60677,AFARA,7.8,25.333,Algeria
60679,ASSEKREM,5.633,23.267,Algeria
60685,BIDON,1.117,22.317,Algeria
60691,ANESBARAKA,4.65,19.433,Algeria
60692,IN-GUEZZAM,5.75,19.57,Algeria
60693,IN-ATEI,6.117,20.567,Algeria
60694,IN-AZAOUA,7.45,20.967,Algeria
60767,GABES,9.917,33.733,Tunisia
61091,MAGARIA,8.933,12.983,Niger
62333,PORT-SAID,32.3,31.267,Egypt
62398,SOHAG-INTL-AIRPORT,31.733,26.333,Egypt
62416,SIWA-OASIS-ARPT,25.507,29.346,Egypt
64550,MOUILLA-VILLE,11.057,-1.845,Gabon
65002,ENUGU,7.567,6.467,Nigeria
65232,AKURE,5.3,7.25,Nigeria
67260,MILANGE,35.767,-16.1,Mozambique
67287,CATANDICA,33.167,-18.067,Mozambique
67299,ESPUNGABERA,32.767,-20.467,Mozambique
67305,MASSANGENA,32.967,-21.55,Mozambique
67327,PANDA,34.717,-24.05,Mozambique
68002,KATIMA-MULILO,24.167,-17.633,Namibia
68184,LYDENBURG,30.467,-25.1,South-Africa
68186,TZANEEN,30.15,-23.833,South-Africa
68188,TZANEEN-GRENSHOEK,30.067,-23.767,South-Africa
68192,THOHOYANDOU,30.5,-22.967,South-Africa
68258,GOEDEHOOP,28.033,-24.233,South-Africa
68264,WONDERBOOM,28.224,-25.654,South-Africa
68290,KRUGER-MPUMALANGA-INTL,31.106,-25.383,South-Africa
68346,ERMELO,29.98,-26.496,South-Africa
68382,JERICHO,31.439,-27.162,Eswatini
68815,LANGEBAAN,18.017,-33.083,South-Africa
68823,PRINS-ALBERT,22.017,-33.183,South-Africa
68827,YSTERPLANTSAAFB,18.5,-33.9,South-Africa
